readJSON([{"lat":51.99,"lng":-176.59,"name":"Adagdak"},{"lat":54.13,"lng":-165.99,"name":"Akutan"},{"lat":58.16,"lng":-155.4,"name":"Alagogshak"},{"lat":55.42,"lng":-163.15,"name":"Amak"},{"lat":51.85,"lng":179.83,"name":"Amchixtam Chaxsxii"},{"lat":52.49,"lng":-171.25,"name":"Amukta"},{"lat":51.97,"lng":-176.63,"name":"Andrew Bay volcano"},{"lat":56.88,"lng":-158.15,"name":"Aniakchak"},{"lat":52.38,"lng":-174.17,"name":"Atka"},{"lat":59.36,"lng":-153.44,"name":"Augustine"},{"lat":58.04,"lng":-156.14,"name":"Basalt of Gertrude Creek"},{"lat":55.32,"lng":-131.05,"name":"Behm Canal-Rudyerd Bay"},{"lat":56.55,"lng":-158.79,"name":"Black Peak"},{"lat":57.71,"lng":-156.85,"name":"Blue Mtn"},{"lat":51.91,"lng":-177.44,"name":"Bobrof"},{"lat":53.93,"lng":-168.03,"name":"Bogoslof"},{"lat":61.42,"lng":-141.72,"name":"Bona-Churchill"},{"lat":52.35,"lng":175.91,"name":"Buldir"},{"lat":64.07,"lng":-148.42,"name":"Buzzard Creek"},{"lat":62.42,"lng":-144.11,"name":"Capital"},{"lat":52.89,"lng":-170.06,"name":"Carlisle"},{"lat":52.57,"lng":-171.14,"name":"Chagulak"},{"lat":57.13,"lng":-156.99,"name":"Chiginagak"},{"lat":52.82,"lng":-169.95,"name":"Cleveland"},{"lat":58.58,"lng":-154.54,"name":"Cone 3110"},{"lat":58.55,"lng":-154.51,"name":"Cone 3601"},{"lat":55.64,"lng":-161.22,"name":"Dana"},{"lat":51.95,"lng":178.33,"name":"Davidof"},{"lat":58.42,"lng":-154.45,"name":"Denison"},{"lat":58.48,"lng":-154.3,"name":"Devils Desk"},{"lat":60.72,"lng":-152.67,"name":"Double Glacier"},{"lat":58.86,"lng":-153.54,"name":"Douglas"},{"lat":62.12,"lng":-144.64,"name":"Drum"},{"lat":56.5,"lng":-133.1,"name":"Duncan Canal"},{"lat":55.19,"lng":-162.27,"name":"Dutton"},{"lat":52.36,"lng":175.95,"name":"East Cape volcano"},{"lat":57.05,"lng":-135.76,"name":"Edgecumbe"},{"lat":55.34,"lng":-162.07,"name":"Emmons Lake Volcanic Center"},{"lat":66.35,"lng":-164.33,"name":"Espenberg"},{"lat":54.67,"lng":-164.35,"name":"Fisher"},{"lat":58.41,"lng":-155.21,"name":"Folsoms Bluff"},{"lat":58.77,"lng":-153.67,"name":"Fourpeaked"},{"lat":55.07,"lng":-162.84,"name":"Frosty"},{"lat":51.79,"lng":-178.8,"name":"Gareloi"},{"lat":54.25,"lng":-165.66,"name":"Gilbert"},{"lat":62.13,"lng":-143.09,"name":"Gordon"},{"lat":52.08,"lng":-176.11,"name":"Great Sitkin"},{"lat":58.36,"lng":-155.1,"name":"Griggs"},{"lat":61.6,"lng":-152.42,"name":"Hayes"},{"lat":52.74,"lng":-170.11,"name":"Herbert"},{"lat":60.03,"lng":-153.09,"name":"Iliamna"},{"lat":65.6,"lng":-163.92,"name":"Imuruk Lake"},{"lat":61.43,"lng":-164.47,"name":"Ingakslugwat Hills"},{"lat":61.53,"lng":-165.23,"name":"Ingrisarak Mtn"},{"lat":58.64,"lng":-154.47,"name":"Iron Trig Cone"},{"lat":54.77,"lng":-163.73,"name":"Isanotski"},{"lat":56.52,"lng":-130.33,"name":"Iskut-Unuk River Cones"},{"lat":62.02,"lng":-143.62,"name":"Jarvis"},{"lat":63.97,"lng":-148.69,"name":"Jumbo Dome"},{"lat":52.97,"lng":-169.72,"name":"Kagamil"},{"lat":58.61,"lng":-154.02,"name":"Kaguyak"},{"lat":51.92,"lng":-177.16,"name":"Kanaga"},{"lat":52.17,"lng":-175.51,"name":"Kasatochi"},{"lat":58.28,"lng":-154.95,"name":"Katmai"},{"lat":58.05,"lng":-155.67,"name":"Kejulik"},{"lat":51.98,"lng":178.28,"name":"Khvostof"},{"lat":57.2,"lng":-156.75,"name":"Kialagvik"},{"lat":52.1,"lng":177.6,"name":"Kiska"},{"lat":62.1,"lng":-145.09,"name":"Klawasi Group"},{"lat":58.59,"lng":-154.56,"name":"Knob 1000"},{"lat":61.64,"lng":-164.41,"name":"Kochilagok Hill"},{"lat":52.22,"lng":-175.13,"name":"Koniuji"},{"lat":63.6,"lng":-170.43,"name":"Kookooligit Mountains"},{"lat":52.38,"lng":-174.17,"name":"Korovin"},{"lat":65.65,"lng":-160.5,"name":"Koyuk-Buckland volcanics"},{"lat":58.45,"lng":-154.36,"name":"Kukak"},{"lat":56.01,"lng":-159.79,"name":"Kupreanof"},{"lat":51.95,"lng":178.54,"name":"Little Sitkin"},{"lat":58.19,"lng":-155.25,"name":"Mageik"},{"lat":53.89,"lng":-166.93,"name":"Makushin"},{"lat":58.17,"lng":-155.36,"name":"Martin"},{"lat":51.94,"lng":-176.74,"name":"Moffett"},{"lat":60.45,"lng":-164.66,"name":"Nelson Island"},{"lat":58.27,"lng":-155.16,"name":"Novarupta"},{"lat":60.1,"lng":-166.5,"name":"Nunivak Island"},{"lat":61.57,"lng":-164.91,"name":"Nushkolik Mountain volcanic field"},{"lat":53.4,"lng":-168.17,"name":"Okmok"},{"lat":55.42,"lng":-161.89,"name":"Pavlof"},{"lat":55.46,"lng":-161.85,"name":"Pavlof Sister"},{"lat":67.3,"lng":-142.7,"name":"Porcupine"},{"lat":63.72,"lng":-141.62,"name":"Prindle Volcano"},{"lat":58.5,"lng":-154.68,"name":"Rainbow River Cone"},{"lat":53.15,"lng":-168.54,"name":"Recheshnoi"},{"lat":60.49,"lng":-152.74,"name":"Redoubt"},{"lat":54.8,"lng":-163.59,"name":"Roundtop"},{"lat":62.21,"lng":-144.13,"name":"Sanford"},{"lat":52.32,"lng":-172.51,"name":"Seguam"},{"lat":52.01,"lng":178.13,"name":"Segula"},{"lat":51.93,"lng":179.6,"name":"Semisopochnoi"},{"lat":52.05,"lng":-174.95,"name":"Sergief"},{"lat":54.76,"lng":-163.97,"name":"Shishaldin"},{"lat":62.4,"lng":-143.13,"name":"Skookum Creek"},{"lat":58.33,"lng":-154.69,"name":"Snowy"},{"lat":61.3,"lng":-152.25,"name":"Spurr"},{"lat":56.58,"lng":-169.63,"name":"St. George volcanic field"},{"lat":63.45,"lng":-162.12,"name":"St. Michael"},{"lat":57.18,"lng":-170.3,"name":"St. Paul Island"},{"lat":58.43,"lng":-154.39,"name":"Steller"},{"lat":53.15,"lng":-169.38,"name":"Submarine 001"},{"lat":53.3,"lng":-169.76,"name":"Submarine 002"},{"lat":53.12,"lng":-170.23,"name":"Submarine 003"},{"lat":52.94,"lng":-171.41,"name":"Submarine 004"},{"lat":52.8,"lng":-171.92,"name":"Submarine 005"},{"lat":52.76,"lng":-171.88,"name":"Submarine 006"},{"lat":51.87,"lng":-178.03,"name":"Takawangha"},{"lat":52.84,"lng":-169.76,"name":"Tana"},{"lat":62.3,"lng":-143.51,"name":"Tanada Peak"},{"lat":51.88,"lng":-178.14,"name":"Tanaga"},{"lat":55.25,"lng":-133.3,"name":"Tlevak Strait-Suemez Island"},{"lat":59.27,"lng":-160.05,"name":"Togiak volcanics"},{"lat":55.56,"lng":-161.95,"name":"Trader Mtn"},{"lat":58.23,"lng":-155.1,"name":"Trident"},{"lat":57.75,"lng":-156.37,"name":"Ugashik-Peulik"},{"lat":57.83,"lng":-156.51,"name":"Ukinrek Maars"},{"lat":53.07,"lng":-169.77,"name":"Uliaga"},{"lat":61.17,"lng":-164.25,"name":"Ungulungwak Hill-Ingrichuak Hill"},{"lat":57.83,"lng":-155.51,"name":"Unnamed (near Ukinrek Maars)"},{"lat":56.2,"lng":-159.39,"name":"Veniaminof"},{"lat":55.87,"lng":-160.1,"name":"Volcano 1 near Kupreanof"},{"lat":55.91,"lng":-160.04,"name":"Volcano 2 near Kupreanof"},{"lat":55.93,"lng":-160.0,"name":"Volcano 3 near Kupreanof"},{"lat":55.95,"lng":-159.96,"name":"Volcano 4 near Kupreanof"},{"lat":53.13,"lng":-168.69,"name":"Vsevidof"},{"lat":54.52,"lng":-164.65,"name":"Westdahl"},{"lat":62.01,"lng":-144.02,"name":"Wrangell"},{"lat":57.02,"lng":-157.19,"name":"Yantarni"},{"lat":52.65,"lng":-170.66,"name":"Yunaska"}]);
